{
  "type": "FeatureCollection",
  "name": "Parkingi Miejskie Rybnik",
  "generator": "Rybnik Parking Map v2",
  "features": [

    {"type":"Feature","properties":{"_comment":"════════════════════════════════════════════════════════════════════════"}},
    {"type":"Feature","properties":{"_comment":"  PRZYKŁADY — wpisy z '_example':true nie pojawiają się na mapie.      "}},
    {"type":"Feature","properties":{"_comment":"  Aby aktywować: usuń wiersz z '_example':true i zmień dane.           "}},
    {"type":"Feature","properties":{"_comment":"  Aby dodać nowy punkt: skopiuj przykład, zmień dane, usuń _example.   "}},
    {"type":"Feature","properties":{"_comment":"════════════════════════════════════════════════════════════════════════"}},

    {"type":"Feature","properties":{"_comment":"─── PRZYKŁAD: parking płatny (paid) ──────────────────────────────────"}},
    {"type":"Feature","id":9901,"geometry":{"type":"Point","coordinates":[18.54000,50.09500]},"properties":{
      "_example":     true,
      "amenity":      "parking",
      "name":         "Parking nr XX",
      "ref":          "XX",
      "parking":      "surface",
      "fee":          "yes",
      "capacity":     "100",
      "addr:street":  "ul. Przykładowa",
      "addr:city":    "Rybnik",
      "note":         "Szlaban · 15 min bezpłatnie",
      "parking:type": "paid"
    }},

    {"type":"Feature","properties":{"_comment":"─── PRZYKŁAD: parking bezpłatny (free) ───────────────────────────────"}},
    {"type":"Feature","id":9902,"geometry":{"type":"Point","coordinates":[18.53500,50.10000]},"properties":{
      "_example":     true,
      "amenity":      "parking",
      "name":         "Parking bezpłatny",
      "ref":          "B",
      "parking":      "surface",
      "fee":          "no",
      "addr:street":  "ul. Przykładowa",
      "addr:city":    "Rybnik",
      "note":         "Wjazd wolny",
      "parking:type": "free"
    }},

    {"type":"Feature","properties":{"_comment":"─── PRZYKŁAD: SPP — Strefa Płatnego Parkowania (spp) ────────────────"}},
    {"type":"Feature","id":9903,"geometry":{"type":"Point","coordinates":[18.54200,50.09600]},"properties":{
      "_example":     true,
      "amenity":      "parking",
      "name":         "SPP ul. Rynek",
      "ref":          "S1",
      "parking":      "street_side",
      "fee":          "yes",
      "addr:street":  "ul. Rynek",
      "addr:city":    "Rybnik",
      "note":         "Parkometr · pon-pt 8:00-17:00",
      "parking:type": "spp"
    }},

    {"type":"Feature","properties":{"_comment":"─── PRZYKŁAD: parking sezonowy (seasonal) ────────────────────────────"}},
    {"type":"Feature","id":9904,"geometry":{"type":"Point","coordinates":[18.53800,50.09800]},"properties":{
      "_example":     true,
      "amenity":      "parking",
      "name":         "Parking letni — Kąpielisko",
      "ref":          "☀",
      "parking":      "surface",
      "fee":          "yes",
      "addr:street":  "ul. Przykładowa",
      "addr:city":    "Rybnik",
      "note":         "Czynny VI–IX · opłata weekendy",
      "opening_hours":"Jun-Sep",
      "parking:type": "seasonal"
    }},

    {"type":"Feature","properties":{"_comment":"════════════════════════════════════════════════════════════════════════"}},
    {"type":"Feature","properties":{"_comment":"  PARKINGI PŁATNE                                                      "}},
    {"type":"Feature","properties":{"_comment":"════════════════════════════════════════════════════════════════════════"}},

    {"type":"Feature","id":1,"geometry":{"type":"Point","coordinates":[18.53845,50.09271]},"properties":{
      "amenity":"parking","name":"Parking wielopoziomowy","ref":"1",
      "parking":"multi-storey","fee":"yes","capacity":"460",
      "addr:street":"ul. Rzeczna","addr:city":"Rybnik",
      "note":"Szlaban · 15 min bezpłatnie",
      "parking:type":"paid"
    }},

    {"type":"Feature","id":2,"geometry":{"type":"Point","coordinates":[18.54292,50.09278]},"properties":{
      "amenity":"parking","name":"Parking nr 2","ref":"2",
      "parking":"surface","fee":"yes",
      "addr:street":"ul. 3 Maja","addr:city":"Rybnik",
      "note":"Szlaban · 15 min bezpłatnie",
      "parking:type":"paid"
    }},

    {"type":"Feature","id":3,"geometry":{"type":"Point","coordinates":[18.53988,50.09679]},"properties":{
      "amenity":"parking","name":"Parking nr 3","ref":"3",
      "parking":"surface","fee":"yes",
      "addr:street":"ul. M. Skłodowskiej-Curie","addr:city":"Rybnik",
      "note":"Szlaban · 15 min bezpłatnie",
      "parking:type":"paid"
    }},

    {"type":"Feature","id":4,"geometry":{"type":"Point","coordinates":[18.54322,50.09801]},"properties":{
      "amenity":"parking","name":"Parking nr 4","ref":"4",
      "parking":"surface","fee":"yes",
      "addr:street":"ul. ks. dr Brudnioka","addr:city":"Rybnik",
      "note":"Szlaban · 15 min bezpłatnie",
      "parking:type":"paid"
    }},

    {"type":"Feature","id":5,"geometry":{"type":"Point","coordinates":[18.54071,50.08852]},"properties":{
      "amenity":"parking","name":"Parking nr 5","ref":"5",
      "parking":"surface","fee":"yes",
      "addr:street":"ul. Parkingowa","addr:city":"Rybnik",
      "note":"Szlaban · 15 min bezpłatnie",
      "parking:type":"paid"
    }},

    {"type":"Feature","id":6,"geometry":{"type":"Point","coordinates":[18.53989,50.09094]},"properties":{
      "amenity":"parking","name":"Parking Targowisko","ref":"6",
      "parking":"surface","fee":"yes",
      "addr:street":"ul. Młyńska","addr:city":"Rybnik",
      "note":"Szlaban · 15 min bezpłatnie",
      "parking:type":"paid"
    }},

    {"type":"Feature","id":7,"geometry":{"type":"Point","coordinates":[18.55114,50.09770]},"properties":{
      "amenity":"parking","name":"Parking nr 7","ref":"7",
      "parking":"surface","fee":"yes",
      "addr:street":"ul. Powstańców Śląskich","addr:city":"Rybnik",
      "note":"90 min bezpłatnie",
      "parking:type":"paid"
    }},

    {"type":"Feature","id":8,"geometry":{"type":"Point","coordinates":[18.54864,50.09656]},"properties":{
      "amenity":"parking","name":"Parking nr 8","ref":"8",
      "parking":"surface","fee":"yes",
      "addr:street":"ul. T. Kościuszki","addr:city":"Rybnik",
      "note":"90 min bezpłatnie",
      "parking:type":"paid"
    }},

    {"type":"Feature","id":9,"geometry":{"type":"Point","coordinates":[18.53734,50.10088]},"properties":{
      "amenity":"parking","name":"Parking nr 9","ref":"9",
      "parking":"surface","fee":"yes",
      "addr:street":"ul. Jana Kotucza","addr:city":"Rybnik",
      "note":"90 min bezpłatnie",
      "parking:type":"paid"
    }},

    {"type":"Feature","id":10,"geometry":{"type":"Point","coordinates":[18.54239,50.09002]},"properties":{
      "amenity":"parking","name":"Parking nr 10 (PUP)","ref":"10",
      "parking":"surface","fee":"yes",
      "addr:street":"ul. Jankowicka","addr:city":"Rybnik",
      "note":"Szlaban · 15 min bezpłatnie",
      "parking:type":"paid"
    }},

    {"type":"Feature","id":11,"geometry":{"type":"Point","coordinates":[18.54091,50.09184]},"properties":{
      "amenity":"parking","name":"Parking nr 11","ref":"11",
      "parking":"surface","fee":"yes",
      "addr:street":"ul. Młyńska / Klasztorna","addr:city":"Rybnik",
      "note":"Szlaban",
      "parking:type":"paid"
    }},

    {"type":"Feature","id":12,"geometry":{"type":"Point","coordinates":[18.54091,50.09237]},"properties":{
      "amenity":"parking","name":"Parking nr 12 (Sąd)","ref":"12",
      "parking":"surface","fee":"yes",
      "addr:street":"ul. Młyńska","addr:city":"Rybnik",
      "note":"Szlaban",
      "parking:type":"paid"
    }},

    {"type":"Feature","id":13,"geometry":{"type":"Point","coordinates":[18.53820,50.09287]},"properties":{
      "amenity":"parking","name":"Parking nr 13","ref":"13",
      "parking":"surface","fee":"yes",
      "addr:street":"ul. Rzeczna","addr:city":"Rybnik",
      "note":"Szlaban · 15 min bezpłatnie",
      "parking:type":"paid"
    }},

    {"type":"Feature","id":14,"geometry":{"type":"Point","coordinates":[18.54744,50.09729]},"properties":{
      "amenity":"parking","name":"Parking nr 14","ref":"14",
      "parking":"surface","fee":"yes",
      "addr:street":"ul. Wysoka","addr:city":"Rybnik",
      "parking:type":"paid"
    }},

    {"type":"Feature","id":16,"geometry":{"type":"Point","coordinates":[18.53834,50.09878]},"properties":{
      "amenity":"parking","name":"Parking nr 16 – Kampus","ref":"16",
      "parking":"surface","fee":"yes",
      "addr:street":"ul. Rudzka","addr:city":"Rybnik",
      "note":"90 min bezpłatnie",
      "parking:type":"paid"
    }},

    {"type":"Feature","properties":{"_comment":"════════════════════════════════════════════════════════════════════════"}},
    {"type":"Feature","properties":{"_comment":"  PARKINGI BEZPŁATNE                                                   "}},
    {"type":"Feature","properties":{"_comment":"════════════════════════════════════════════════════════════════════════"}},

    {"type":"Feature","id":101,"geometry":{"type":"Point","coordinates":[18.53262,50.10209]},"properties":{
      "amenity":"parking","name":"Parking bezpłatny","ref":"B",
      "parking":"surface","fee":"no",
      "addr:street":"ul. Budowlanych","addr:city":"Rybnik",
      "note":"Wjazd wolny",
      "parking:type":"free"
    }},

    {"type":"Feature","id":102,"geometry":{"type":"Point","coordinates":[18.54197,50.10828]},"properties":{
      "amenity":"parking","name":"P. bezpłatny (Cmentarz)","ref":"B",
      "parking":"surface","fee":"no",
      "addr:street":"ul. Rudzka","addr:city":"Rybnik",
      "note":"Wjazd wolny",
      "parking:type":"free"
    }},

    {"type":"Feature","id":103,"geometry":{"type":"Point","coordinates":[18.53985,50.10238]},"properties":{
      "amenity":"parking","name":"Parking bezpłatny","ref":"B",
      "parking":"surface","fee":"no",
      "addr:street":"ul. Cmentarna","addr:city":"Rybnik",
      "note":"Wjazd wolny",
      "parking:type":"free"
    }},

    {"type":"Feature","id":104,"geometry":{"type":"Point","coordinates":[18.53742,50.10448]},"properties":{
      "amenity":"parking","name":"Parking bezpłatny","ref":"B",
      "parking":"surface","fee":"no",
      "addr:street":"ul. Jaskółcza","addr:city":"Rybnik",
      "note":"Wjazd wolny",
      "parking:type":"free"
    }}

  ]
}
